[
    {
        "name": "Pipeline",
        "id": 1001,
        "coordinates": {
            "longitude": -158.05120469999997,
            "latitude": 21.6650562
        },
        "link": "https://magicseaweed.com/Pipeline-Backdoor-Surf-Report/616/",
        "imageName": "pipeline",
        "difficulty": 4
    },
    {
        "name": "Superbank",
        "id": 1002,
        "coordinates": {
            "longitude": 153.55002880000006,
            "latitude": -28.162557
        },
        "link": "https://magicseaweed.com/Surfers-Paradise-Gold-Coast-Surf-Report/1012/",
        "imageName": "superbank",
        "difficulty": 4
    },
    {
        "name": "Supertubes",
        "id": 1003,
        "coordinates": {
            "longitude": 24.93159400000002,
            "latitude": -34.031783
        },
        "link": "https://magicseaweed.com/Jeffreys-Bay-J-Bay-Surf-Report/88/",
        "imageName": "supertubes",
        "difficulty": 5
    },
    {
        "name": "Playa Chicama",
        "id": 1004,
        "coordinates": {
            "longitude": -79.43381879999998,
            "latitude": -7.7001724
        },
        "link": "https://magicseaweed.com/Southern-Peru-Surfing/378/",
        "imageName": "playa",
        "difficulty": 3
    },
    {
        "name": "The Bubble",
        "id": 1005,
        "coordinates": {
            "longitude": -13.942277999999988,
            "latitude": 28.7449091
        },
        "link": "https://magicseaweed.com/Canary-Islands-Surf-Forecast/5/",
        "imageName": "bubble",
        "difficulty": 3
    },
    {
        "name": "Rockaway Beach",
        "id": 1006,
        "coordinates": {
            "longitude": -73.81149929999998,
            "latitude": 40.5867247
        },
        "link": "https://magicseaweed.com/Rockaway-Surf-Report/384/rock",
        "imageName": "rockaway",
        "difficulty": 1
    },
    {
        "name": "Pasta Point",
        "id": 1007,
        "coordinates": {
            "longitude": 73.59173299999998,
            "latitude": 4.317842
        },
        "link": "https://magicseaweed.com/Maldives-Surf-Forecast/56/",
        "imageName": "pastapoint",
        "difficulty": 3
    },
    {
        "name": "Manu Bay",
        "id": 1008,
        "coordinates": {
            "longitude": 174.81221619999997,
            "latitude": -37.8214592
        },
        "link": "https://magicseaweed.com/Raglan-Surf-Report/91/",
        "imageName": "manubay",
        "difficulty": 2
    },
    {
        "name": "Kitty Hawk",
        "id": 1009,
        "coordinates": {
            "longitude": -75.71195569999998,
            "latitude": 36.1005777
        },
        "link": "https://magicseaweed.com/North-Carolina-Outer-Banks-North-Surfing/283/",
        "imageName": "kittyhawk",
        "difficulty": 3
    },
    {
        "name": "Skeleton Bay",
        "id": 1010,
        "coordinates": {
            "longitude": 14.906859,
            "latitude": -25.9144919
        },
        "link": "https://magicseaweed.com/Skeleton-Bay-Surf-Report/4591/",
        "imageName": "skeleton",
        "difficulty": 5
    }
]
